city_key,city,country,lat,lon,cs_semantic_overlap,n_cs_papers,n_cs_projects
san diego,San Diego,US,32.71571,-117.16472,0.9628967046737671,3,3
wuhan,Wuhan,CN,30.583330154418945,114.26667022705078,0.958741307258606,2,5
beijing,Beijing,CN,39.9075,116.39723,0.9564961791038513,10,2
shanghai,Shanghai,CN,31.22221946716309,121.45806121826172,0.9484070539474487,2,6
guangzhou,Guangzhou,CN,23.11667,113.25,0.934980571269989,2,2
madison,Madison,US,43.07305,-89.40123,0.9291307926177979,3,2
austin,Austin,US,30.26715,-97.74306,0.9225066900253296,2,2
